[
  {
    "id": 288,
    "name": "Therapia Lane",
    "lat": 51.38553,
    "long": -0.12858,
    "zone": "Trams fare zone",
    "created_at": "2025-01-13 18:57:21.622337+00",
    "updated_at": "2025-01-13 18:57:21.622337+00",
    "uid": "940GZZCRTPA"
  },
  {
    "id": 289,
    "name": "Blackwall",
    "lat": 51.50793,
    "long": -0.00654,
    "zone": 2,
    "created_at": "2025-01-13 18:57:21.622337+00",
    "updated_at": "2025-01-13 18:57:21.622337+00",
    "uid": "940GZZDLBLA"
  },
  {
    "id": 290,
    "name": "Bow Church",
    "lat": 51.5277,
    "long": -0.02083,
    "zone": 2,
    "created_at": "2025-01-13 18:57:21.622337+00",
    "updated_at": "2025-01-13 18:57:21.622337+00",
    "uid": "940GZZDLBOW"
  },
  {
    "id": 291,
    "name": "Elverson Road",
    "lat": 51.46876,
    "long": -0.01687,
    "zone": "2|3",
    "created_at": "2025-01-13 18:57:21.622337+00",
    "updated_at": "2025-01-13 18:57:21.622337+00",
    "uid": "940GZZDLELV"
  },
  {
    "id": 292,
    "name": "Mudchute",
    "lat": 51.49124,
    "long": -0.01483,
    "zone": 2,
    "created_at": "2025-01-13 18:57:21.622337+00",
    "updated_at": "2025-01-13 18:57:21.622337+00",
    "uid": "940GZZDLMUD"
  },
  {
    "id": 293,
    "name": "Pontoon Dock",
    "lat": 51.50236,
    "long": 0.0333,
    "zone": 3,
    "created_at": "2025-01-13 18:57:21.622337+00",
    "updated_at": "2025-01-13 18:57:21.622337+00",
    "uid": "940GZZDLPDK"
  },
  {
    "id": 294,
    "name": "West Silvertown",
    "lat": 51.50281,
    "long": 0.02283,
    "zone": 3,
    "created_at": "2025-01-13 18:57:21.622337+00",
    "updated_at": "2025-01-13 18:57:21.622337+00",
    "uid": "940GZZDLWSV"
  },
  {
    "id": 295,
    "name": "Acton Town",
    "lat": 51.50306,
    "long": -0.28046,
    "zone": 3,
    "created_at": "2025-01-13 18:57:21.622337+00",
    "updated_at": "2025-01-13 18:57:21.622337+00",
    "uid": "940GZZLUACT"
  },
  {
    "id": 296,
    "name": "Archway",
    "lat": 51.56548,
    "long": -0.13482,
    "zone": "2|3",
    "created_at": "2025-01-13 18:57:21.622337+00",
    "updated_at": "2025-01-13 18:57:21.622337+00",
    "uid": "940GZZLUACY"
  },
  {
    "id": 297,
    "name": "Aldgate East",
    "lat": 51.51544,
    "long": -0.07124,
    "zone": 1,
    "created_at": "2025-01-13 18:57:21.622337+00",
    "updated_at": "2025-01-13 18:57:21.622337+00",
    "uid": "940GZZLUADE"
  },
  {
    "id": 298,
    "name": "Angel",
    "lat": 51.53176,
    "long": -0.10539,
    "zone": 1,
    "created_at": "2025-01-13 18:57:21.622337+00",
    "updated_at": "2025-01-13 18:57:21.622337+00",
    "uid": "940GZZLUAGL"
  },
  {
    "id": 299,
    "name": "Aldgate",
    "lat": 51.51424,
    "long": -0.07569,
    "zone": 1,
    "created_at": "2025-01-13 18:57:21.622337+00",
    "updated_at": "2025-01-13 18:57:21.622337+00",
    "uid": "940GZZLUALD"
  },
  {
    "id": 300,
    "name": "Alperton",
    "lat": 51.54063,
    "long": -0.29961,
    "zone": 4,
    "created_at": "2025-01-13 18:57:21.622337+00",
    "updated_at": "2025-01-13 18:57:21.622337+00",
    "uid": "940GZZLUALP"
  },
  {
    "id": 301,
    "name": "Arnos Grove",
    "lat": 51.61644,
    "long": -0.13306,
    "zone": 4,
    "created_at": "2025-01-13 18:57:21.622337+00",
    "updated_at": "2025-01-13 18:57:21.622337+00",
    "uid": "940GZZLUASG"
  },
  {
    "id": 302,
    "name": "Bromley-by-Bow",
    "lat": 51.52484,
    "long": -0.01154,
    "zone": "2|3",
    "created_at": "2025-01-13 18:57:21.622337+00",
    "updated_at": "2025-01-13 18:57:21.622337+00",
    "uid": "940GZZLUBBB"
  },
  {
    "id": 303,
    "name": "Bounds Green",
    "lat": 51.60703,
    "long": -0.12423,
    "zone": "3|4",
    "created_at": "2025-01-13 18:57:21.622337+00",
    "updated_at": "2025-01-13 18:57:21.622337+00",
    "uid": "940GZZLUBDS"
  },
  {
    "id": 304,
    "name": "Becontree",
    "lat": 51.54033,
    "long": 0.12702,
    "zone": 5,
    "created_at": "2025-01-13 18:57:21.622337+00",
    "updated_at": "2025-01-13 18:57:21.622337+00",
    "uid": "940GZZLUBEC"
  },
  {
    "id": 305,
    "name": "Barkingside",
    "lat": 51.58569,
    "long": 0.08858,
    "zone": 4,
    "created_at": "2025-01-13 18:57:21.622337+00",
    "updated_at": "2025-01-13 18:57:21.622337+00",
    "uid": "940GZZLUBKE"
  },
  {
    "id": 306,
    "name": "Buckhurst Hill",
    "lat": 51.6266,
    "long": 0.04676,
    "zone": 5,
    "created_at": "2025-01-13 18:57:21.622337+00",
    "updated_at": "2025-01-13 18:57:21.622337+00",
    "uid": "940GZZLUBKH"
  },
  {
    "id": 307,
    "name": "Bethnal Green",
    "lat": 51.52722,
    "long": -0.05551,
    "zone": 2,
    "created_at": "2025-01-13 18:57:21.622337+00",
    "updated_at": "2025-01-13 18:57:21.622337+00",
    "uid": "940GZZLUBLG"
  },
  {
    "id": 308,
    "name": "Bermondsey",
    "lat": 51.49795,
    "long": -0.06377,
    "zone": 2,
    "created_at": "2025-01-13 18:57:21.622337+00",
    "updated_at": "2025-01-13 18:57:21.622337+00",
    "uid": "940GZZLUBMY"
  },
  {
    "id": 309,
    "name": "Borough",
    "lat": 51.5012,
    "long": -0.09337,
    "zone": 1,
    "created_at": "2025-01-13 18:57:21.622337+00",
    "updated_at": "2025-01-13 18:57:21.622337+00",
    "uid": "940GZZLUBOR"
  },
  {
    "id": 310,
    "name": "Boston Manor",
    "lat": 51.49563,
    "long": -0.32494,
    "zone": 4,
    "created_at": "2025-01-13 18:57:21.622337+00",
    "updated_at": "2025-01-13 18:57:21.622337+00",
    "uid": "940GZZLUBOS"
  },
  {
    "id": 311,
    "name": "Barons Court",
    "lat": 51.49031,
    "long": -0.21356,
    "zone": 2,
    "created_at": "2025-01-13 18:57:21.622337+00",
    "updated_at": "2025-01-13 18:57:21.622337+00",
    "uid": "940GZZLUBSC"
  },
  {
    "id": 312,
    "name": "Baker Street",
    "lat": 51.52288,
    "long": -0.15713,
    "zone": 1,
    "created_at": "2025-01-13 18:57:21.622337+00",
    "updated_at": "2025-01-13 18:57:21.622337+00",
    "uid": "940GZZLUBST"
  },
  {
    "id": 313,
    "name": "Burnt Oak",
    "lat": 51.60277,
    "long": -0.26405,
    "zone": 4,
    "created_at": "2025-01-13 18:57:21.622337+00",
    "updated_at": "2025-01-13 18:57:21.622337+00",
    "uid": "940GZZLUBTK"
  },
  {
    "id": 314,
    "name": "Brent Cross",
    "lat": 51.57665,
    "long": -0.21362,
    "zone": 3,
    "created_at": "2025-01-13 18:57:21.622337+00",
    "updated_at": "2025-01-13 18:57:21.622337+00",
    "uid": "940GZZLUBTX"
  },
  {
    "id": 315,
    "name": "Bow Road",
    "lat": 51.52694,
    "long": -0.02513,
    "zone": 2,
    "created_at": "2025-01-13 18:57:21.622337+00",
    "updated_at": "2025-01-13 18:57:21.622337+00",
    "uid": "940GZZLUBWR"
  },
  {
    "id": 316,
    "name": "Bayswater",
    "lat": 51.51228,
    "long": -0.18794,
    "zone": 1,
    "created_at": "2025-01-13 18:57:21.622337+00",
    "updated_at": "2025-01-13 18:57:21.622337+00",
    "uid": "940GZZLUBWT"
  },
  {
    "id": 317,
    "name": "Belsize Park",
    "lat": 51.55031,
    "long": -0.16465,
    "zone": 2,
    "created_at": "2025-01-13 18:57:21.622337+00",
    "updated_at": "2025-01-13 18:57:21.622337+00",
    "uid": "940GZZLUBZP"
  },
  {
    "id": 318,
    "name": "Caledonian Road",
    "lat": 51.54852,
    "long": -0.11849,
    "zone": 2,
    "created_at": "2025-01-13 18:57:21.622337+00",
    "updated_at": "2025-01-13 18:57:21.622337+00",
    "uid": "940GZZLUCAR"
  },
  {
    "id": 319,
    "name": "Chalk Farm",
    "lat": 51.54412,
    "long": -0.15339,
    "zone": 2,
    "created_at": "2025-01-13 18:57:21.622337+00",
    "updated_at": "2025-01-13 18:57:21.622337+00",
    "uid": "940GZZLUCFM"
  },
  {
    "id": 320,
    "name": "Covent Garden",
    "lat": 51.51309,
    "long": -0.12444,
    "zone": 1,
    "created_at": "2025-01-13 18:57:21.622337+00",
    "updated_at": "2025-01-13 18:57:21.622337+00",
    "uid": "940GZZLUCGN"
  },
  {
    "id": 321,
    "name": "Chancery Lane",
    "lat": 51.51824,
    "long": -0.11158,
    "zone": 1,
    "created_at": "2025-01-13 18:57:21.622337+00",
    "updated_at": "2025-01-13 18:57:21.622337+00",
    "uid": "940GZZLUCHL"
  },
  {
    "id": 322,
    "name": "Cockfosters",
    "lat": 51.65151,
    "long": -0.14906,
    "zone": 5,
    "created_at": "2025-01-13 18:57:21.622337+00",
    "updated_at": "2025-01-13 18:57:21.622337+00",
    "uid": "940GZZLUCKS"
  },
  {
    "id": 323,
    "name": "Colindale",
    "lat": 51.59542,
    "long": -0.24992,
    "zone": 4,
    "created_at": "2025-01-13 18:57:21.622337+00",
    "updated_at": "2025-01-13 18:57:21.622337+00",
    "uid": "940GZZLUCND"
  },
  {
    "id": 324,
    "name": "Clapham Common",
    "lat": 51.46174,
    "long": -0.13832,
    "zone": 2,
    "created_at": "2025-01-13 18:57:21.622337+00",
    "updated_at": "2025-01-13 18:57:21.622337+00",
    "uid": "940GZZLUCPC"
  },
  {
    "id": 325,
    "name": "Canons Park",
    "lat": 51.6077,
    "long": -0.29469,
    "zone": 5,
    "created_at": "2025-01-13 18:57:21.622337+00",
    "updated_at": "2025-01-13 18:57:21.622337+00",
    "uid": "940GZZLUCPK"
  },
  {
    "id": 326,
    "name": "Clapham North",
    "lat": 51.46513,
    "long": -0.13002,
    "zone": 2,
    "created_at": "2025-01-13 18:57:21.622337+00",
    "updated_at": "2025-01-13 18:57:21.622337+00",
    "uid": "940GZZLUCPN"
  },
  {
    "id": 327,
    "name": "Clapham South",
    "lat": 51.45265,
    "long": -0.14758,
    "zone": "2|3",
    "created_at": "2025-01-13 18:57:21.622337+00",
    "updated_at": "2025-01-13 18:57:21.622337+00",
    "uid": "940GZZLUCPS"
  },
  {
    "id": 328,
    "name": "Colliers Wood",
    "lat": 51.41816,
    "long": -0.17809,
    "zone": 3,
    "created_at": "2025-01-13 18:57:21.622337+00",
    "updated_at": "2025-01-13 18:57:21.622337+00",
    "uid": "940GZZLUCSD"
  },
  {
    "id": 329,
    "name": "Chesham",
    "lat": 51.70524,
    "long": -0.61112,
    "zone": 9,
    "created_at": "2025-01-13 18:57:21.622337+00",
    "updated_at": "2025-01-13 18:57:21.622337+00",
    "uid": "940GZZLUCSM"
  },
  {
    "id": 330,
    "name": "Camden Town",
    "lat": 51.53929,
    "long": -0.14274,
    "zone": 2,
    "created_at": "2025-01-13 18:57:21.622337+00",
    "updated_at": "2025-01-13 18:57:21.622337+00",
    "uid": "940GZZLUCTN"
  },
  {
    "id": 331,
    "name": "Chigwell",
    "lat": 51.61791,
    "long": 0.07504,
    "zone": 4,
    "created_at": "2025-01-13 18:57:21.622337+00",
    "updated_at": "2025-01-13 18:57:21.622337+00",
    "uid": "940GZZLUCWL"
  },
  {
    "id": 332,
    "name": "Chiswick Park",
    "lat": 51.49463,
    "long": -0.26797,
    "zone": 3,
    "created_at": "2025-01-13 18:57:21.622337+00",
    "updated_at": "2025-01-13 18:57:21.622337+00",
    "uid": "940GZZLUCWP"
  },
  {
    "id": 333,
    "name": "Croxley",
    "lat": 51.64704,
    "long": -0.44172,
    "zone": 7,
    "created_at": "2025-01-13 18:57:21.622337+00",
    "updated_at": "2025-01-13 18:57:21.622337+00",
    "uid": "940GZZLUCXY"
  },
  {
    "id": 334,
    "name": "Debden",
    "lat": 51.64538,
    "long": 0.08378,
    "zone": 6,
    "created_at": "2025-01-13 18:57:21.622337+00",
    "updated_at": "2025-01-13 18:57:21.622337+00",
    "uid": "940GZZLUDBN"
  },
  {
    "id": 335,
    "name": "Dagenham East",
    "lat": 51.54409,
    "long": 0.16602,
    "zone": 5,
    "created_at": "2025-01-13 18:57:21.622337+00",
    "updated_at": "2025-01-13 18:57:21.622337+00",
    "uid": "940GZZLUDGE"
  },
  {
    "id": 336,
    "name": "Dagenham Heathway",
    "lat": 51.54164,
    "long": 0.14753,
    "zone": 5,
    "created_at": "2025-01-13 18:57:21.622337+00",
    "updated_at": "2025-01-13 18:57:21.622337+00",
    "uid": "940GZZLUDGY"
  },
  {
    "id": 337,
    "name": "Dollis Hill",
    "lat": 51.55195,
    "long": -0.23907,
    "zone": 3,
    "created_at": "2025-01-13 18:57:21.622337+00",
    "updated_at": "2025-01-13 18:57:21.622337+00",
    "uid": "940GZZLUDOH"
  },
  {
    "id": 338,
    "name": "Eastcote",
    "lat": 51.5765,
    "long": -0.39737,
    "zone": 5,
    "created_at": "2025-01-13 18:57:21.622337+00",
    "updated_at": "2025-01-13 18:57:21.622337+00",
    "uid": "940GZZLUEAE"
  },
  {
    "id": 339,
    "name": "East Acton",
    "lat": 51.51661,
    "long": -0.24725,
    "zone": 2,
    "created_at": "2025-01-13 18:57:21.622337+00",
    "updated_at": "2025-01-13 18:57:21.622337+00",
    "uid": "940GZZLUEAN"
  },
  {
    "id": 340,
    "name": "Ealing Common",
    "lat": 51.51014,
    "long": -0.28827,
    "zone": 3,
    "created_at": "2025-01-13 18:57:21.622337+00",
    "updated_at": "2025-01-13 18:57:21.622337+00",
    "uid": "940GZZLUECM"
  },
  {
    "id": 341,
    "name": "Earl's Court",
    "lat": 51.49206,
    "long": -0.19338,
    "zone": "1|2",
    "created_at": "2025-01-13 18:57:21.622337+00",
    "updated_at": "2025-01-13 18:57:21.622337+00",
    "uid": "940GZZLUECT"
  },
  {
    "id": 342,
    "name": "East Finchley",
    "lat": 51.58713,
    "long": -0.16501,
    "zone": 3,
    "created_at": "2025-01-13 18:57:21.622337+00",
    "updated_at": "2025-01-13 18:57:21.622337+00",
    "uid": "940GZZLUEFY"
  },
  {
    "id": 343,
    "name": "Edgware",
    "lat": 51.61365,
    "long": -0.27493,
    "zone": 5,
    "created_at": "2025-01-13 18:57:21.622337+00",
    "updated_at": "2025-01-13 18:57:21.622337+00",
    "uid": "940GZZLUEGW"
  },
  {
    "id": 344,
    "name": "East Ham",
    "lat": 51.53895,
    "long": 0.05119,
    "zone": "3|4",
    "created_at": "2025-01-13 18:57:21.622337+00",
    "updated_at": "2025-01-13 18:57:21.622337+00",
    "uid": "940GZZLUEHM"
  },
  {
    "id": 345,
    "name": "Embankment",
    "lat": 51.50706,
    "long": -0.12267,
    "zone": 1,
    "created_at": "2025-01-13 18:57:21.622337+00",
    "updated_at": "2025-01-13 18:57:21.622337+00",
    "uid": "940GZZLUEMB"
  },
  {
    "id": 346,
    "name": "Epping",
    "lat": 51.69368,
    "long": 0.11377,
    "zone": 6,
    "created_at": "2025-01-13 18:57:21.622337+00",
    "updated_at": "2025-01-13 18:57:21.622337+00",
    "uid": "940GZZLUEPG"
  },
  {
    "id": 347,
    "name": "Elm Park",
    "lat": 51.54977,
    "long": 0.19864,
    "zone": 6,
    "created_at": "2025-01-13 18:57:21.622337+00",
    "updated_at": "2025-01-13 18:57:21.622337+00",
    "uid": "940GZZLUEPK"
  },
  {
    "id": 348,
    "name": "East Putney",
    "lat": 51.4592,
    "long": -0.211,
    "zone": "2|3",
    "created_at": "2025-01-13 18:57:21.622337+00",
    "updated_at": "2025-01-13 18:57:21.622337+00",
    "uid": "940GZZLUEPY"
  },
  {
    "id": 349,
    "name": "Edgware Road(B)",
    "lat": 51.5203,
    "long": -0.17015,
    "zone": 1,
    "created_at": "2025-01-13 18:57:21.622337+00",
    "updated_at": "2025-01-13 18:57:21.622337+00",
    "uid": "940GZZLUERB"
  },
  {
    "id": 350,
    "name": "Edgware Road(C)",
    "lat": 51.51986,
    "long": -0.16783,
    "zone": 1,
    "created_at": "2025-01-13 18:57:21.622337+00",
    "updated_at": "2025-01-13 18:57:21.622337+00",
    "uid": "940GZZLUERC"
  },
  {
    "id": 351,
    "name": "Euston Square",
    "lat": 51.5256,
    "long": -0.13583,
    "zone": 1,
    "created_at": "2025-01-13 18:57:21.622337+00",
    "updated_at": "2025-01-13 18:57:21.622337+00",
    "uid": "940GZZLUESQ"
  },
  {
    "id": 352,
    "name": "Fulham Broadway",
    "lat": 51.48008,
    "long": -0.19542,
    "zone": 2,
    "created_at": "2025-01-13 18:57:21.622337+00",
    "updated_at": "2025-01-13 18:57:21.622337+00",
    "uid": "940GZZLUFBY"
  },
  {
    "id": 353,
    "name": "Fairlop",
    "lat": 51.59562,
    "long": 0.091,
    "zone": 4,
    "created_at": "2025-01-13 18:57:21.622337+00",
    "updated_at": "2025-01-13 18:57:21.622337+00",
    "uid": "940GZZLUFLP"
  },
  {
    "id": 354,
    "name": "Finchley Central",
    "lat": 51.60092,
    "long": -0.19253,
    "zone": 4,
    "created_at": "2025-01-13 18:57:21.622337+00",
    "updated_at": "2025-01-13 18:57:21.622337+00",
    "uid": "940GZZLUFYC"
  },
  {
    "id": 355,
    "name": "Finchley Road",
    "lat": 51.54682,
    "long": -0.17985,
    "zone": 2,
    "created_at": "2025-01-13 18:57:21.622337+00",
    "updated_at": "2025-01-13 18:57:21.622337+00",
    "uid": "940GZZLUFYR"
  },
  {
    "id": 356,
    "name": "Goodge Street",
    "lat": 51.52067,
    "long": -0.13453,
    "zone": 1,
    "created_at": "2025-01-13 18:57:21.622337+00",
    "updated_at": "2025-01-13 18:57:21.622337+00",
    "uid": "940GZZLUGDG"
  },
  {
    "id": 357,
    "name": "Grange Hill",
    "lat": 51.61338,
    "long": 0.09207,
    "zone": 4,
    "created_at": "2025-01-13 18:57:21.622337+00",
    "updated_at": "2025-01-13 18:57:21.622337+00",
    "uid": "940GZZLUGGH"
  },
  {
    "id": 358,
    "name": "Golders Green",
    "lat": 51.57226,
    "long": -0.19404,
    "zone": 3,
    "created_at": "2025-01-13 18:57:21.622337+00",
    "updated_at": "2025-01-13 18:57:21.622337+00",
    "uid": "940GZZLUGGN"
  },
  {
    "id": 359,
    "name": "Goldhawk Road",
    "lat": 51.502,
    "long": -0.22672,
    "zone": 2,
    "created_at": "2025-01-13 18:57:21.622337+00",
    "updated_at": "2025-01-13 18:57:21.622337+00",
    "uid": "940GZZLUGHK"
  },
  {
    "id": 360,
    "name": "Green Park",
    "lat": 51.50695,
    "long": -0.14279,
    "zone": 1,
    "created_at": "2025-01-13 18:57:21.622337+00",
    "updated_at": "2025-01-13 18:57:21.622337+00",
    "uid": "940GZZLUGPK"
  },
  {
    "id": 361,
    "name": "Great Portland Street",
    "lat": 51.52384,
    "long": -0.14426,
    "zone": 1,
    "created_at": "2025-01-13 18:57:21.622337+00",
    "updated_at": "2025-01-13 18:57:21.622337+00",
    "uid": "940GZZLUGPS"
  },
  {
    "id": 362,
    "name": "Gants Hill",
    "lat": 51.57654,
    "long": 0.06618,
    "zone": 4,
    "created_at": "2025-01-13 18:57:21.622337+00",
    "updated_at": "2025-01-13 18:57:21.622337+00",
    "uid": "940GZZLUGTH"
  },
  {
    "id": 363,
    "name": "Gloucester Road",
    "lat": 51.49431,
    "long": -0.18266,
    "zone": 1,
    "created_at": "2025-01-13 18:57:21.622337+00",
    "updated_at": "2025-01-13 18:57:21.622337+00",
    "uid": "940GZZLUGTR"
  },
  {
    "id": 364,
    "name": "Holborn",
    "lat": 51.51758,
    "long": -0.12047,
    "zone": 1,
    "created_at": "2025-01-13 18:57:21.622337+00",
    "updated_at": "2025-01-13 18:57:21.622337+00",
    "uid": "940GZZLUHBN"
  },
  {
    "id": 365,
    "name": "High Barnet",
    "lat": 51.65054,
    "long": -0.1943,
    "zone": 5,
    "created_at": "2025-01-13 18:57:21.622337+00",
    "updated_at": "2025-01-13 18:57:21.622337+00",
    "uid": "940GZZLUHBT"
  },
  {
    "id": 366,
    "name": "Hornchurch",
    "lat": 51.55409,
    "long": 0.21912,
    "zone": 6,
    "created_at": "2025-01-13 18:57:21.622337+00",
    "updated_at": "2025-01-13 18:57:21.622337+00",
    "uid": "940GZZLUHCH"
  },
  {
    "id": 367,
    "name": "Hendon Central",
    "lat": 51.5833,
    "long": -0.22642,
    "zone": "3|4",
    "created_at": "2025-01-13 18:57:21.622337+00",
    "updated_at": "2025-01-13 18:57:21.622337+00",
    "uid": "940GZZLUHCL"
  },
  {
    "id": 368,
    "name": "Hillingdon",
    "lat": 51.55371,
    "long": -0.44983,
    "zone": 6,
    "created_at": "2025-01-13 18:57:21.622337+00",
    "updated_at": "2025-01-13 18:57:21.622337+00",
    "uid": "940GZZLUHGD"
  },
  {
    "id": 369,
    "name": "Hanger Lane",
    "lat": 51.53018,
    "long": -0.2927,
    "zone": 3,
    "created_at": "2025-01-13 18:57:21.622337+00",
    "updated_at": "2025-01-13 18:57:21.622337+00",
    "uid": "940GZZLUHGR"
  },
  {
    "id": 370,
    "name": "Highgate",
    "lat": 51.57753,
    "long": -0.14586,
    "zone": 3,
    "created_at": "2025-01-13 18:57:21.622337+00",
    "updated_at": "2025-01-13 18:57:21.622337+00",
    "uid": "940GZZLUHGT"
  },
  {
    "id": 371,
    "name": "Hainault",
    "lat": 51.60366,
    "long": 0.09348,
    "zone": 4,
    "created_at": "2025-01-13 18:57:21.622337+00",
    "updated_at": "2025-01-13 18:57:21.622337+00",
    "uid": "940GZZLUHLT"
  },
  {
    "id": 372,
    "name": "Hatton Cross",
    "lat": 51.46675,
    "long": -0.42319,
    "zone": "5|6",
    "created_at": "2025-01-13 18:57:21.622337+00",
    "updated_at": "2025-01-13 18:57:21.622337+00",
    "uid": "940GZZLUHNX"
  },
  {
    "id": 373,
    "name": "Hyde Park Corner",
    "lat": 51.50303,
    "long": -0.15244,
    "zone": 1,
    "created_at": "2025-01-13 18:57:21.622337+00",
    "updated_at": "2025-01-13 18:57:21.622337+00",
    "uid": "940GZZLUHPC"
  },
  {
    "id": 374,
    "name": "Holland Park",
    "lat": 51.50714,
    "long": -0.20568,
    "zone": 2,
    "created_at": "2025-01-13 18:57:21.622337+00",
    "updated_at": "2025-01-13 18:57:21.622337+00",
    "uid": "940GZZLUHPK"
  },
  {
    "id": 375,
    "name": "High Street Kensington",
    "lat": 51.50105,
    "long": -0.19279,
    "zone": 1,
    "created_at": "2025-01-13 18:57:21.622337+00",
    "updated_at": "2025-01-13 18:57:21.622337+00",
    "uid": "940GZZLUHSK"
  },
  {
    "id": 376,
    "name": "Hampstead",
    "lat": 51.55663,
    "long": -0.17849,
    "zone": "2|3",
    "created_at": "2025-01-13 18:57:21.622337+00",
    "updated_at": "2025-01-13 18:57:21.622337+00",
    "uid": "940GZZLUHTD"
  },
  {
    "id": 377,
    "name": "Hounslow Central",
    "lat": 51.47129,
    "long": -0.36658,
    "zone": 4,
    "created_at": "2025-01-13 18:57:21.622337+00",
    "updated_at": "2025-01-13 18:57:21.622337+00",
    "uid": "940GZZLUHWC"
  },
  {
    "id": 378,
    "name": "Hounslow East",
    "lat": 51.47321,
    "long": -0.35647,
    "zone": 4,
    "created_at": "2025-01-13 18:57:21.622337+00",
    "updated_at": "2025-01-13 18:57:21.622337+00",
    "uid": "940GZZLUHWE"
  },
  {
    "id": 379,
    "name": "Hounslow West",
    "lat": 51.47347,
    "long": -0.38654,
    "zone": 5,
    "created_at": "2025-01-13 18:57:21.622337+00",
    "updated_at": "2025-01-13 18:57:21.622337+00",
    "uid": "940GZZLUHWT"
  },
  {
    "id": 380,
    "name": "Holloway Road",
    "lat": 51.55269,
    "long": -0.11324,
    "zone": 2,
    "created_at": "2025-01-13 18:57:21.622337+00",
    "updated_at": "2025-01-13 18:57:21.622337+00",
    "uid": "940GZZLUHWY"
  },
  {
    "id": 381,
    "name": "Ickenham",
    "lat": 51.56199,
    "long": -0.442,
    "zone": 6,
    "created_at": "2025-01-13 18:57:21.622337+00",
    "updated_at": "2025-01-13 18:57:21.622337+00",
    "uid": "940GZZLUICK"
  },
  {
    "id": 382,
    "name": "Kilburn",
    "lat": 51.5468,
    "long": -0.2041,
    "zone": 2,
    "created_at": "2025-01-13 18:57:21.622337+00",
    "updated_at": "2025-01-13 18:57:21.622337+00",
    "uid": "940GZZLUKBN"
  },
  {
    "id": 383,
    "name": "Kingsbury",
    "lat": 51.58484,
    "long": -0.27879,
    "zone": 4,
    "created_at": "2025-01-13 18:57:21.622337+00",
    "updated_at": "2025-01-13 18:57:21.622337+00",
    "uid": "940GZZLUKBY"
  },
  {
    "id": 384,
    "name": "Knightsbridge",
    "lat": 51.50167,
    "long": -0.16051,
    "zone": 1,
    "created_at": "2025-01-13 18:57:21.622337+00",
    "updated_at": "2025-01-13 18:57:21.622337+00",
    "uid": "940GZZLUKNB"
  },
  {
    "id": 385,
    "name": "Kennington",
    "lat": 51.48833,
    "long": -0.10596,
    "zone": "1|2",
    "created_at": "2025-01-13 18:57:21.622337+00",
    "updated_at": "2025-01-13 18:57:21.622337+00",
    "uid": "940GZZLUKNG"
  },
  {
    "id": 386,
    "name": "Kilburn Park",
    "lat": 51.53498,
    "long": -0.19423,
    "zone": 2,
    "created_at": "2025-01-13 18:57:21.622337+00",
    "updated_at": "2025-01-13 18:57:21.622337+00",
    "uid": "940GZZLUKPK"
  },
  {
    "id": 387,
    "name": "Ladbroke Grove",
    "lat": 51.51745,
    "long": -0.21039,
    "zone": 2,
    "created_at": "2025-01-13 18:57:21.622337+00",
    "updated_at": "2025-01-13 18:57:21.622337+00",
    "uid": "940GZZLULAD"
  },
  {
    "id": 388,
    "name": "Lambeth North",
    "lat": 51.49881,
    "long": -0.11231,
    "zone": 1,
    "created_at": "2025-01-13 18:57:21.622337+00",
    "updated_at": "2025-01-13 18:57:21.622337+00",
    "uid": "940GZZLULBN"
  },
  {
    "id": 389,
    "name": "Loughton",
    "lat": 51.64144,
    "long": 0.05548,
    "zone": 6,
    "created_at": "2025-01-13 18:57:21.622337+00",
    "updated_at": "2025-01-13 18:57:21.622337+00",
    "uid": "940GZZLULGN"
  },
  {
    "id": 390,
    "name": "Lancaster Gate",
    "lat": 51.51187,
    "long": -0.17487,
    "zone": 1,
    "created_at": "2025-01-13 18:57:21.622337+00",
    "updated_at": "2025-01-13 18:57:21.622337+00",
    "uid": "940GZZLULGT"
  },
  {
    "id": 391,
    "name": "Latimer Road",
    "lat": 51.51339,
    "long": -0.2178,
    "zone": 2,
    "created_at": "2025-01-13 18:57:21.622337+00",
    "updated_at": "2025-01-13 18:57:21.622337+00",
    "uid": "940GZZLULRD"
  },
  {
    "id": 392,
    "name": "Leicester Square",
    "lat": 51.51138,
    "long": -0.12843,
    "zone": 1,
    "created_at": "2025-01-13 18:57:21.622337+00",
    "updated_at": "2025-01-13 18:57:21.622337+00",
    "uid": "940GZZLULSQ"
  },
  {
    "id": 393,
    "name": "Leyton",
    "lat": 51.55659,
    "long": -0.00552,
    "zone": 3,
    "created_at": "2025-01-13 18:57:21.622337+00",
    "updated_at": "2025-01-13 18:57:21.622337+00",
    "uid": "940GZZLULYN"
  },
  {
    "id": 394,
    "name": "Leytonstone",
    "lat": 51.56832,
    "long": 0.00819,
    "zone": "3|4",
    "created_at": "2025-01-13 18:57:21.622337+00",
    "updated_at": "2025-01-13 18:57:21.622337+00",
    "uid": "940GZZLULYS"
  },
  {
    "id": 395,
    "name": "Marble Arch",
    "lat": 51.51342,
    "long": -0.15895,
    "zone": 1,
    "created_at": "2025-01-13 18:57:21.622337+00",
    "updated_at": "2025-01-13 18:57:21.622337+00",
    "uid": "940GZZLUMBA"
  },
  {
    "id": 396,
    "name": "Morden",
    "lat": 51.40214,
    "long": -0.19484,
    "zone": 4,
    "created_at": "2025-01-13 18:57:21.622337+00",
    "updated_at": "2025-01-13 18:57:21.622337+00",
    "uid": "940GZZLUMDN"
  },
  {
    "id": 397,
    "name": "Mile End",
    "lat": 51.52512,
    "long": -0.03364,
    "zone": 2,
    "created_at": "2025-01-13 18:57:21.622337+00",
    "updated_at": "2025-01-13 18:57:21.622337+00",
    "uid": "940GZZLUMED"
  },
  {
    "id": 398,
    "name": "Mill Hill East",
    "lat": 51.60823,
    "long": -0.20999,
    "zone": 4,
    "created_at": "2025-01-13 18:57:21.622337+00",
    "updated_at": "2025-01-13 18:57:21.622337+00",
    "uid": "940GZZLUMHL"
  },
  {
    "id": 399,
    "name": "Monument",
    "lat": 51.5107,
    "long": -0.08597,
    "zone": 1,
    "created_at": "2025-01-13 18:57:21.622337+00",
    "updated_at": "2025-01-13 18:57:21.622337+00",
    "uid": "940GZZLUMMT"
  },
  {
    "id": 400,
    "name": "Moor Park",
    "lat": 51.62984,
    "long": -0.43245,
    "zone": "6|7",
    "created_at": "2025-01-13 18:57:21.622337+00",
    "updated_at": "2025-01-13 18:57:21.622337+00",
    "uid": "940GZZLUMPK"
  },
  {
    "id": 401,
    "name": "Manor House",
    "lat": 51.57074,
    "long": -0.09612,
    "zone": "2|3",
    "created_at": "2025-01-13 18:57:21.622337+00",
    "updated_at": "2025-01-13 18:57:21.622337+00",
    "uid": "940GZZLUMRH"
  },
  {
    "id": 402,
    "name": "Mansion House",
    "lat": 51.51212,
    "long": -0.09401,
    "zone": 1,
    "created_at": "2025-01-13 18:57:21.622337+00",
    "updated_at": "2025-01-13 18:57:21.622337+00",
    "uid": "940GZZLUMSH"
  },
  {
    "id": 403,
    "name": "Mornington Crescent",
    "lat": 51.53468,
    "long": -0.13879,
    "zone": 2,
    "created_at": "2025-01-13 18:57:21.622337+00",
    "updated_at": "2025-01-13 18:57:21.622337+00",
    "uid": "940GZZLUMTC"
  },
  {
    "id": 404,
    "name": "Maida Vale",
    "lat": 51.52977,
    "long": -0.18576,
    "zone": 2,
    "created_at": "2025-01-13 18:57:21.622337+00",
    "updated_at": "2025-01-13 18:57:21.622337+00",
    "uid": "940GZZLUMVL"
  },
  {
    "id": 405,
    "name": "North Acton",
    "lat": 51.52352,
    "long": -0.25975,
    "zone": "2|3",
    "created_at": "2025-01-13 18:57:21.622337+00",
    "updated_at": "2025-01-13 18:57:21.622337+00",
    "uid": "940GZZLUNAN"
  },
  {
    "id": 406,
    "name": "Newbury Park",
    "lat": 51.57572,
    "long": 0.09,
    "zone": 4,
    "created_at": "2025-01-13 18:57:21.622337+00",
    "updated_at": "2025-01-13 18:57:21.622337+00",
    "uid": "940GZZLUNBP"
  },
  {
    "id": 407,
    "name": "Neasden",
    "lat": 51.55398,
    "long": -0.24984,
    "zone": 3,
    "created_at": "2025-01-13 18:57:21.622337+00",
    "updated_at": "2025-01-13 18:57:21.622337+00",
    "uid": "940GZZLUNDN"
  },
  {
    "id": 408,
    "name": "North Ealing",
    "lat": 51.5175,
    "long": -0.28887,
    "zone": 3,
    "created_at": "2025-01-13 18:57:21.622337+00",
    "updated_at": "2025-01-13 18:57:21.622337+00",
    "uid": "940GZZLUNEN"
  },
  {
    "id": 409,
    "name": "Northfields",
    "lat": 51.49932,
    "long": -0.31472,
    "zone": 3,
    "created_at": "2025-01-13 18:57:21.622337+00",
    "updated_at": "2025-01-13 18:57:21.622337+00",
    "uid": "940GZZLUNFD"
  },
  {
    "id": 410,
    "name": "North Greenwich",
    "lat": 51.50013,
    "long": 0.00338,
    "zone": "2|3",
    "created_at": "2025-01-13 18:57:21.622337+00",
    "updated_at": "2025-01-13 18:57:21.622337+00",
    "uid": "940GZZLUNGW"
  },
  {
    "id": 411,
    "name": "North Harrow",
    "lat": 51.58487,
    "long": -0.36241,
    "zone": 5,
    "created_at": "2025-01-13 18:57:21.622337+00",
    "updated_at": "2025-01-13 18:57:21.622337+00",
    "uid": "940GZZLUNHA"
  },
  {
    "id": 412,
    "name": "Notting Hill Gate",
    "lat": 51.50913,
    "long": -0.1961,
    "zone": "1|2",
    "created_at": "2025-01-13 18:57:21.622337+00",
    "updated_at": "2025-01-13 18:57:21.622337+00",
    "uid": "940GZZLUNHG"
  },
  {
    "id": 413,
    "name": "Northolt",
    "lat": 51.54823,
    "long": -0.3687,
    "zone": 5,
    "created_at": "2025-01-13 18:57:21.622337+00",
    "updated_at": "2025-01-13 18:57:21.622337+00",
    "uid": "940GZZLUNHT"
  },
  {
    "id": 414,
    "name": "Northwick Park",
    "lat": 51.57848,
    "long": -0.31806,
    "zone": 4,
    "created_at": "2025-01-13 18:57:21.622337+00",
    "updated_at": "2025-01-13 18:57:21.622337+00",
    "uid": "940GZZLUNKP"
  },
  {
    "id": 415,
    "name": "Northwood",
    "lat": 51.61105,
    "long": -0.42383,
    "zone": 6,
    "created_at": "2025-01-13 18:57:21.622337+00",
    "updated_at": "2025-01-13 18:57:21.622337+00",
    "uid": "940GZZLUNOW"
  },
  {
    "id": 416,
    "name": "Northwood Hills",
    "lat": 51.60057,
    "long": -0.40946,
    "zone": 6,
    "created_at": "2025-01-13 18:57:21.622337+00",
    "updated_at": "2025-01-13 18:57:21.622337+00",
    "uid": "940GZZLUNWH"
  },
  {
    "id": 417,
    "name": "Oakwood",
    "lat": 51.64772,
    "long": -0.13217,
    "zone": 5,
    "created_at": "2025-01-13 18:57:21.622337+00",
    "updated_at": "2025-01-13 18:57:21.622337+00",
    "uid": "940GZZLUOAK"
  },
  {
    "id": 418,
    "name": "Osterley",
    "lat": 51.48127,
    "long": -0.35222,
    "zone": 4,
    "created_at": "2025-01-13 18:57:21.622337+00",
    "updated_at": "2025-01-13 18:57:21.622337+00",
    "uid": "940GZZLUOSY"
  },
  {
    "id": 419,
    "name": "Oval",
    "lat": 51.48185,
    "long": -0.11244,
    "zone": 2,
    "created_at": "2025-01-13 18:57:21.622337+00",
    "updated_at": "2025-01-13 18:57:21.622337+00",
    "uid": "940GZZLUOVL"
  },
  {
    "id": 420,
    "name": "Oxford Circus",
    "lat": 51.51522,
    "long": -0.1419,
    "zone": 1,
    "created_at": "2025-01-13 18:57:21.622337+00",
    "updated_at": "2025-01-13 18:57:21.622337+00",
    "uid": "940GZZLUOXC"
  },
  {
    "id": 421,
    "name": "Piccadilly Circus",
    "lat": 51.51005,
    "long": -0.1338,
    "zone": 1,
    "created_at": "2025-01-13 18:57:21.622337+00",
    "updated_at": "2025-01-13 18:57:21.622337+00",
    "uid": "940GZZLUPCC"
  },
  {
    "id": 422,
    "name": "Pimlico",
    "lat": 51.4891,
    "long": -0.13376,
    "zone": 1,
    "created_at": "2025-01-13 18:57:21.622337+00",
    "updated_at": "2025-01-13 18:57:21.622337+00",
    "uid": "940GZZLUPCO"
  },
  {
    "id": 423,
    "name": "Park Royal",
    "lat": 51.52712,
    "long": -0.28434,
    "zone": 3,
    "created_at": "2025-01-13 18:57:21.622337+00",
    "updated_at": "2025-01-13 18:57:21.622337+00",
    "uid": "940GZZLUPKR"
  },
  {
    "id": 424,
    "name": "Plaistow",
    "lat": 51.53134,
    "long": 0.01745,
    "zone": 3,
    "created_at": "2025-01-13 18:57:21.622337+00",
    "updated_at": "2025-01-13 18:57:21.622337+00",
    "uid": "940GZZLUPLW"
  },
  {
    "id": 425,
    "name": "Pinner",
    "lat": 51.5929,
    "long": -0.38116,
    "zone": 5,
    "created_at": "2025-01-13 18:57:21.622337+00",
    "updated_at": "2025-01-13 18:57:21.622337+00",
    "uid": "940GZZLUPNR"
  },
  {
    "id": 426,
    "name": "Preston Road",
    "lat": 51.57197,
    "long": -0.29511,
    "zone": 4,
    "created_at": "2025-01-13 18:57:21.622337+00",
    "updated_at": "2025-01-13 18:57:21.622337+00",
    "uid": "940GZZLUPRD"
  },
  {
    "id": 427,
    "name": "Parsons Green",
    "lat": 51.47528,
    "long": -0.20117,
    "zone": 2,
    "created_at": "2025-01-13 18:57:21.622337+00",
    "updated_at": "2025-01-13 18:57:21.622337+00",
    "uid": "940GZZLUPSG"
  },
  {
    "id": 428,
    "name": "Perivale",
    "lat": 51.53672,
    "long": -0.32345,
    "zone": 4,
    "created_at": "2025-01-13 18:57:21.622337+00",
    "updated_at": "2025-01-13 18:57:21.622337+00",
    "uid": "940GZZLUPVL"
  },
  {
    "id": 429,
    "name": "Putney Bridge",
    "lat": 51.46826,
    "long": -0.20873,
    "zone": 2,
    "created_at": "2025-01-13 18:57:21.622337+00",
    "updated_at": "2025-01-13 18:57:21.622337+00",
    "uid": "940GZZLUPYB"
  },
  {
    "id": 430,
    "name": "Queensbury",
    "lat": 51.59419,
    "long": -0.28622,
    "zone": 4,
    "created_at": "2025-01-13 18:57:21.622337+00",
    "updated_at": "2025-01-13 18:57:21.622337+00",
    "uid": "940GZZLUQBY"
  },
  {
    "id": 431,
    "name": "Queensway",
    "lat": 51.51031,
    "long": -0.18715,
    "zone": 1,
    "created_at": "2025-01-13 18:57:21.622337+00",
    "updated_at": "2025-01-13 18:57:21.622337+00",
    "uid": "940GZZLUQWY"
  },
  {
    "id": 432,
    "name": "Redbridge",
    "lat": 51.57624,
    "long": 0.04536,
    "zone": 4,
    "created_at": "2025-01-13 18:57:21.622337+00",
    "updated_at": "2025-01-13 18:57:21.622337+00",
    "uid": "940GZZLURBG"
  },
  {
    "id": 433,
    "name": "Regent's Park",
    "lat": 51.52334,
    "long": -0.14644,
    "zone": 1,
    "created_at": "2025-01-13 18:57:21.622337+00",
    "updated_at": "2025-01-13 18:57:21.622337+00",
    "uid": "940GZZLURGP"
  },
  {
    "id": 434,
    "name": "Ruislip Gardens",
    "lat": 51.56073,
    "long": -0.41071,
    "zone": 5,
    "created_at": "2025-01-13 18:57:21.622337+00",
    "updated_at": "2025-01-13 18:57:21.622337+00",
    "uid": "940GZZLURSG"
  },
  {
    "id": 435,
    "name": "Ruislip Manor",
    "lat": 51.5732,
    "long": -0.41297,
    "zone": 6,
    "created_at": "2025-01-13 18:57:21.622337+00",
    "updated_at": "2025-01-13 18:57:21.622337+00",
    "uid": "940GZZLURSM"
  },
  {
    "id": 436,
    "name": "Ruislip",
    "lat": 51.57135,
    "long": -0.4219,
    "zone": 6,
    "created_at": "2025-01-13 18:57:21.622337+00",
    "updated_at": "2025-01-13 18:57:21.622337+00",
    "uid": "940GZZLURSP"
  },
  {
    "id": 437,
    "name": "Russell Square",
    "lat": 51.52307,
    "long": -0.12429,
    "zone": 1,
    "created_at": "2025-01-13 18:57:21.622337+00",
    "updated_at": "2025-01-13 18:57:21.622337+00",
    "uid": "940GZZLURSQ"
  },
  {
    "id": 438,
    "name": "Ravenscourt Park",
    "lat": 51.49412,
    "long": -0.23588,
    "zone": 2,
    "created_at": "2025-01-13 18:57:21.622337+00",
    "updated_at": "2025-01-13 18:57:21.622337+00",
    "uid": "940GZZLURVP"
  },
  {
    "id": 439,
    "name": "Roding Valley",
    "lat": 51.6172,
    "long": 0.04365,
    "zone": 4,
    "created_at": "2025-01-13 18:57:21.622337+00",
    "updated_at": "2025-01-13 18:57:21.622337+00",
    "uid": "940GZZLURVY"
  },
  {
    "id": 440,
    "name": "Rayners Lane",
    "lat": 51.57515,
    "long": -0.37113,
    "zone": 5,
    "created_at": "2025-01-13 18:57:21.622337+00",
    "updated_at": "2025-01-13 18:57:21.622337+00",
    "uid": "940GZZLURYL"
  },
  {
    "id": 441,
    "name": "Royal Oak",
    "lat": 51.51911,
    "long": -0.18875,
    "zone": 2,
    "created_at": "2025-01-13 18:57:21.622337+00",
    "updated_at": "2025-01-13 18:57:21.622337+00",
    "uid": "940GZZLURYO"
  },
  {
    "id": 442,
    "name": "Shepherd's Bush Market",
    "lat": 51.50558,
    "long": -0.22637,
    "zone": 2,
    "created_at": "2025-01-13 18:57:21.622337+00",
    "updated_at": "2025-01-13 18:57:21.622337+00",
    "uid": "940GZZLUSBM"
  },
  {
    "id": 443,
    "name": "South Ealing",
    "lat": 51.501,
    "long": -0.30742,
    "zone": 3,
    "created_at": "2025-01-13 18:57:21.622337+00",
    "updated_at": "2025-01-13 18:57:21.622337+00",
    "uid": "940GZZLUSEA"
  },
  {
    "id": 444,
    "name": "Stamford Brook",
    "lat": 51.49492,
    "long": -0.2457,
    "zone": 2,
    "created_at": "2025-01-13 18:57:21.622337+00",
    "updated_at": "2025-01-13 18:57:21.622337+00",
    "uid": "940GZZLUSFB"
  },
  {
    "id": 445,
    "name": "Southfields",
    "lat": 51.44507,
    "long": -0.2066,
    "zone": 3,
    "created_at": "2025-01-13 18:57:21.622337+00",
    "updated_at": "2025-01-13 18:57:21.622337+00",
    "uid": "940GZZLUSFS"
  },
  {
    "id": 446,
    "name": "Stepney Green",
    "lat": 51.52174,
    "long": -0.04685,
    "zone": 2,
    "created_at": "2025-01-13 18:57:21.622337+00",
    "updated_at": "2025-01-13 18:57:21.622337+00",
    "uid": "940GZZLUSGN"
  },
  {
    "id": 447,
    "name": "Southgate",
    "lat": 51.63231,
    "long": -0.12782,
    "zone": 4,
    "created_at": "2025-01-13 18:57:21.622337+00",
    "updated_at": "2025-01-13 18:57:21.622337+00",
    "uid": "940GZZLUSGT"
  },
  {
    "id": 448,
    "name": "South Harrow",
    "lat": 51.56489,
    "long": -0.35249,
    "zone": 5,
    "created_at": "2025-01-13 18:57:21.622337+00",
    "updated_at": "2025-01-13 18:57:21.622337+00",
    "uid": "940GZZLUSHH"
  },
  {
    "id": 449,
    "name": "St James's Park",
    "lat": 51.49954,
    "long": -0.13361,
    "zone": 1,
    "created_at": "2025-01-13 18:57:21.622337+00",
    "updated_at": "2025-01-13 18:57:21.622337+00",
    "uid": "940GZZLUSJP"
  },
  {
    "id": 450,
    "name": "St John's Wood",
    "lat": 51.53452,
    "long": -0.17395,
    "zone": 2,
    "created_at": "2025-01-13 18:57:21.622337+00",
    "updated_at": "2025-01-13 18:57:21.622337+00",
    "uid": "940GZZLUSJW"
  },
  {
    "id": 451,
    "name": "South Kensington",
    "lat": 51.49409,
    "long": -0.17414,
    "zone": 1,
    "created_at": "2025-01-13 18:57:21.622337+00",
    "updated_at": "2025-01-13 18:57:21.622337+00",
    "uid": "940GZZLUSKS"
  },
  {
    "id": 452,
    "name": "Stockwell",
    "lat": 51.47218,
    "long": -0.12264,
    "zone": 2,
    "created_at": "2025-01-13 18:57:21.622337+00",
    "updated_at": "2025-01-13 18:57:21.622337+00",
    "uid": "940GZZLUSKW"
  },
  {
    "id": 453,
    "name": "Snaresbrook",
    "lat": 51.58068,
    "long": 0.02144,
    "zone": 4,
    "created_at": "2025-01-13 18:57:21.622337+00",
    "updated_at": "2025-01-13 18:57:21.622337+00",
    "uid": "940GZZLUSNB"
  },
  {
    "id": 454,
    "name": "St Paul's",
    "lat": 51.51504,
    "long": -0.09771,
    "zone": 1,
    "created_at": "2025-01-13 18:57:21.622337+00",
    "updated_at": "2025-01-13 18:57:21.622337+00",
    "uid": "940GZZLUSPU"
  },
  {
    "id": 455,
    "name": "Sloane Square",
    "lat": 51.49227,
    "long": -0.15638,
    "zone": 1,
    "created_at": "2025-01-13 18:57:21.622337+00",
    "updated_at": "2025-01-13 18:57:21.622337+00",
    "uid": "940GZZLUSSQ"
  },
  {
    "id": 456,
    "name": "Stanmore",
    "lat": 51.61984,
    "long": -0.30327,
    "zone": 5,
    "created_at": "2025-01-13 18:57:21.622337+00",
    "updated_at": "2025-01-13 18:57:21.622337+00",
    "uid": "940GZZLUSTM"
  },
  {
    "id": 457,
    "name": "Sudbury Hill",
    "lat": 51.55694,
    "long": -0.33644,
    "zone": 4,
    "created_at": "2025-01-13 18:57:21.622337+00",
    "updated_at": "2025-01-13 18:57:21.622337+00",
    "uid": "940GZZLUSUH"
  },
  {
    "id": 458,
    "name": "Sudbury Town",
    "lat": 51.55081,
    "long": -0.31574,
    "zone": 4,
    "created_at": "2025-01-13 18:57:21.622337+00",
    "updated_at": "2025-01-13 18:57:21.622337+00",
    "uid": "940GZZLUSUT"
  },
  {
    "id": 459,
    "name": "Swiss Cottage",
    "lat": 51.54368,
    "long": -0.17489,
    "zone": 2,
    "created_at": "2025-01-13 18:57:21.622337+00",
    "updated_at": "2025-01-13 18:57:21.622337+00",
    "uid": "940GZZLUSWC"
  },
  {
    "id": 460,
    "name": "South Woodford",
    "lat": 51.5919,
    "long": 0.02734,
    "zone": 4,
    "created_at": "2025-01-13 18:57:21.622337+00",
    "updated_at": "2025-01-13 18:57:21.622337+00",
    "uid": "940GZZLUSWF"
  },
  {
    "id": 461,
    "name": "Southwark",
    "lat": 51.50397,
    "long": -0.10494,
    "zone": 1,
    "created_at": "2025-01-13 18:57:21.622337+00",
    "updated_at": "2025-01-13 18:57:21.622337+00",
    "uid": "940GZZLUSWK"
  },
  {
    "id": 462,
    "name": "South Wimbledon",
    "lat": 51.41531,
    "long": -0.19201,
    "zone": "3|4",
    "created_at": "2025-01-13 18:57:21.622337+00",
    "updated_at": "2025-01-13 18:57:21.622337+00",
    "uid": "940GZZLUSWN"
  },
  {
    "id": 463,
    "name": "Totteridge & Whetstone",
    "lat": 51.63059,
    "long": -0.17921,
    "zone": 4,
    "created_at": "2025-01-13 18:57:21.622337+00",
    "updated_at": "2025-01-13 18:57:21.622337+00",
    "uid": "940GZZLUTAW"
  },
  {
    "id": 464,
    "name": "Tooting Bec",
    "lat": 51.43568,
    "long": -0.15974,
    "zone": 3,
    "created_at": "2025-01-13 18:57:21.622337+00",
    "updated_at": "2025-01-13 18:57:21.622337+00",
    "uid": "940GZZLUTBC"
  },
  {
    "id": 465,
    "name": "Tooting Broadway",
    "lat": 51.42763,
    "long": -0.16837,
    "zone": 3,
    "created_at": "2025-01-13 18:57:21.622337+00",
    "updated_at": "2025-01-13 18:57:21.622337+00",
    "uid": "940GZZLUTBY"
  },
  {
    "id": 466,
    "name": "Tufnell Park",
    "lat": 51.55682,
    "long": -0.13843,
    "zone": 2,
    "created_at": "2025-01-13 18:57:21.622337+00",
    "updated_at": "2025-01-13 18:57:21.622337+00",
    "uid": "940GZZLUTFP"
  },
  {
    "id": 467,
    "name": "Theydon Bois",
    "lat": 51.67176,
    "long": 0.10309,
    "zone": 6,
    "created_at": "2025-01-13 18:57:21.622337+00",
    "updated_at": "2025-01-13 18:57:21.622337+00",
    "uid": "940GZZLUTHB"
  },
  {
    "id": 468,
    "name": "Temple",
    "lat": 51.511,
    "long": -0.11426,
    "zone": 1,
    "created_at": "2025-01-13 18:57:21.622337+00",
    "updated_at": "2025-01-13 18:57:21.622337+00",
    "uid": "940GZZLUTMP"
  },
  {
    "id": 469,
    "name": "Turnham Green",
    "lat": 51.49515,
    "long": -0.25455,
    "zone": "2|3",
    "created_at": "2025-01-13 18:57:21.622337+00",
    "updated_at": "2025-01-13 18:57:21.622337+00",
    "uid": "940GZZLUTNG"
  },
  {
    "id": 470,
    "name": "Turnpike Lane",
    "lat": 51.59027,
    "long": -0.10295,
    "zone": 3,
    "created_at": "2025-01-13 18:57:21.622337+00",
    "updated_at": "2025-01-13 18:57:21.622337+00",
    "uid": "940GZZLUTPN"
  },
  {
    "id": 471,
    "name": "Tower Hill",
    "lat": 51.50997,
    "long": -0.07655,
    "zone": 1,
    "created_at": "2025-01-13 18:57:21.622337+00",
    "updated_at": "2025-01-13 18:57:21.622337+00",
    "uid": "940GZZLUTWH"
  },
  {
    "id": 472,
    "name": "Upminster Bridge",
    "lat": 51.55856,
    "long": 0.23581,
    "zone": 6,
    "created_at": "2025-01-13 18:57:21.622337+00",
    "updated_at": "2025-01-13 18:57:21.622337+00",
    "uid": "940GZZLUUPB"
  },
  {
    "id": 473,
    "name": "Upton Park",
    "lat": 51.53534,
    "long": 0.03526,
    "zone": 3,
    "created_at": "2025-01-13 18:57:21.622337+00",
    "updated_at": "2025-01-13 18:57:21.622337+00",
    "uid": "940GZZLUUPK"
  },
  {
    "id": 474,
    "name": "Upney",
    "lat": 51.53837,
    "long": 0.10153,
    "zone": 4,
    "created_at": "2025-01-13 18:57:21.622337+00",
    "updated_at": "2025-01-13 18:57:21.622337+00",
    "uid": "940GZZLUUPY"
  },
  {
    "id": 475,
    "name": "Uxbridge",
    "lat": 51.54656,
    "long": -0.47795,
    "zone": 6,
    "created_at": "2025-01-13 18:57:21.622337+00",
    "updated_at": "2025-01-13 18:57:21.622337+00",
    "uid": "940GZZLUUXB"
  },
  {
    "id": 476,
    "name": "Watford",
    "lat": 51.65744,
    "long": -0.41738,
    "zone": 7,
    "created_at": "2025-01-13 18:57:21.622337+00",
    "updated_at": "2025-01-13 18:57:21.622337+00",
    "uid": "940GZZLUWAF"
  },
  {
    "id": 477,
    "name": "White City",
    "lat": 51.51196,
    "long": -0.2243,
    "zone": 2,
    "created_at": "2025-01-13 18:57:21.622337+00",
    "updated_at": "2025-01-13 18:57:21.622337+00",
    "uid": "940GZZLUWCY"
  },
  {
    "id": 478,
    "name": "West Finchley",
    "lat": 51.60942,
    "long": -0.18836,
    "zone": 4,
    "created_at": "2025-01-13 18:57:21.622337+00",
    "updated_at": "2025-01-13 18:57:21.622337+00",
    "uid": "940GZZLUWFN"
  },
  {
    "id": 479,
    "name": "West Hampstead",
    "lat": 51.54664,
    "long": -0.19106,
    "zone": 2,
    "created_at": "2025-01-13 18:57:21.622337+00",
    "updated_at": "2025-01-13 18:57:21.622337+00",
    "uid": "940GZZLUWHP"
  },
  {
    "id": 480,
    "name": "West Harrow",
    "lat": 51.57971,
    "long": -0.3534,
    "zone": 5,
    "created_at": "2025-01-13 18:57:21.622337+00",
    "updated_at": "2025-01-13 18:57:21.622337+00",
    "uid": "940GZZLUWHW"
  },
  {
    "id": 481,
    "name": "Willesden Green",
    "lat": 51.54914,
    "long": -0.22154,
    "zone": "2|3",
    "created_at": "2025-01-13 18:57:21.622337+00",
    "updated_at": "2025-01-13 18:57:21.622337+00",
    "uid": "940GZZLUWIG"
  },
  {
    "id": 482,
    "name": "Wimbledon Park",
    "lat": 51.43457,
    "long": -0.19972,
    "zone": 3,
    "created_at": "2025-01-13 18:57:21.622337+00",
    "updated_at": "2025-01-13 18:57:21.622337+00",
    "uid": "940GZZLUWIP"
  },
  {
    "id": 483,
    "name": "Warwick Avenue",
    "lat": 51.52326,
    "long": -0.18378,
    "zone": 2,
    "created_at": "2025-01-13 18:57:21.622337+00",
    "updated_at": "2025-01-13 18:57:21.622337+00",
    "uid": "940GZZLUWKA"
  },
  {
    "id": 484,
    "name": "West Kensington",
    "lat": 51.49046,
    "long": -0.20664,
    "zone": 2,
    "created_at": "2025-01-13 18:57:21.622337+00",
    "updated_at": "2025-01-13 18:57:21.622337+00",
    "uid": "940GZZLUWKN"
  },
  {
    "id": 485,
    "name": "Wood Lane",
    "lat": 51.50967,
    "long": -0.22453,
    "zone": 2,
    "created_at": "2025-01-13 18:57:21.622337+00",
    "updated_at": "2025-01-13 18:57:21.622337+00",
    "uid": "940GZZLUWLA"
  },
  {
    "id": 486,
    "name": "Woodford",
    "lat": 51.6069,
    "long": 0.03397,
    "zone": 4,
    "created_at": "2025-01-13 18:57:21.622337+00",
    "updated_at": "2025-01-13 18:57:21.622337+00",
    "uid": "940GZZLUWOF"
  },
  {
    "id": 487,
    "name": "Wood Green",
    "lat": 51.59748,
    "long": -0.10989,
    "zone": 3,
    "created_at": "2025-01-13 18:57:21.622337+00",
    "updated_at": "2025-01-13 18:57:21.622337+00",
    "uid": "940GZZLUWOG"
  },
  {
    "id": 488,
    "name": "Woodside Park",
    "lat": 51.61801,
    "long": -0.18542,
    "zone": 4,
    "created_at": "2025-01-13 18:57:21.622337+00",
    "updated_at": "2025-01-13 18:57:21.622337+00",
    "uid": "940GZZLUWOP"
  },
  {
    "id": 489,
    "name": "Warren Street",
    "lat": 51.52495,
    "long": -0.13832,
    "zone": 1,
    "created_at": "2025-01-13 18:57:21.622337+00",
    "updated_at": "2025-01-13 18:57:21.622337+00",
    "uid": "940GZZLUWRR"
  },
  {
    "id": 490,
    "name": "Wanstead",
    "lat": 51.5755,
    "long": 0.02853,
    "zone": 4,
    "created_at": "2025-01-13 18:57:21.622337+00",
    "updated_at": "2025-01-13 18:57:21.622337+00",
    "uid": "940GZZLUWSD"
  },
  {
    "id": 491,
    "name": "Westbourne Park",
    "lat": 51.52111,
    "long": -0.20107,
    "zone": 2,
    "created_at": "2025-01-13 18:57:21.622337+00",
    "updated_at": "2025-01-13 18:57:21.622337+00",
    "uid": "940GZZLUWSP"
  },
  {
    "id": 492,
    "name": "West Acton",
    "lat": 51.518,
    "long": -0.28098,
    "zone": 3,
    "created_at": "2025-01-13 18:57:21.622337+00",
    "updated_at": "2025-01-13 18:57:21.622337+00",
    "uid": "940GZZLUWTA"
  },
  {
    "id": 493,
    "name": "Wembley Park",
    "lat": 51.5632,
    "long": -0.27926,
    "zone": 4,
    "created_at": "2025-01-13 18:57:21.622337+00",
    "updated_at": "2025-01-13 18:57:21.622337+00",
    "uid": "940GZZLUWYP"
  },
  {
    "id": 494,
    "name": "Amersham",
    "lat": 51.67412,
    "long": -0.60771,
    "zone": 9,
    "created_at": "2025-01-13 18:57:21.622337+00",
    "updated_at": "2025-01-13 18:57:21.622337+00",
    "uid": "HUBAMR"
  },
  {
    "id": 495,
    "name": "Balham",
    "lat": 51.44329,
    "long": -0.153,
    "zone": 3,
    "created_at": "2025-01-13 18:57:21.622337+00",
    "updated_at": "2025-01-13 18:57:21.622337+00",
    "uid": "HUBBAL"
  },
  {
    "id": 496,
    "name": "Bank",
    "lat": 51.51342,
    "long": -0.08895,
    "zone": 1,
    "created_at": "2025-01-13 18:57:21.622337+00",
    "updated_at": "2025-01-13 18:57:21.622337+00",
    "uid": "HUBBAN"
  },
  {
    "id": 497,
    "name": "Bond Street",
    "lat": 51.5143,
    "long": -0.14972,
    "zone": 1,
    "created_at": "2025-01-13 18:57:21.622337+00",
    "updated_at": "2025-01-13 18:57:21.622337+00",
    "uid": "HUBBDS"
  },
  {
    "id": 498,
    "name": "Blackhorse Road",
    "lat": 51.58692,
    "long": -0.04115,
    "zone": 3,
    "created_at": "2025-01-13 18:57:21.622337+00",
    "updated_at": "2025-01-13 18:57:21.622337+00",
    "uid": "HUBBHO"
  },
  {
    "id": 499,
    "name": "Barking",
    "lat": 51.53932,
    "long": 0.08105,
    "zone": 4,
    "created_at": "2025-01-13 18:57:21.622337+00",
    "updated_at": "2025-01-13 18:57:21.622337+00",
    "uid": "HUBBKG"
  },
  {
    "id": 500,
    "name": "Brixton",
    "lat": 51.46262,
    "long": -0.11489,
    "zone": 2,
    "created_at": "2025-01-13 18:57:21.622337+00",
    "updated_at": "2025-01-13 18:57:21.622337+00",
    "uid": "HUBBRX"
  },
  {
    "id": 501,
    "name": "Canning Town",
    "lat": 51.51413,
    "long": 0.0081,
    "zone": "2|3",
    "created_at": "2025-01-13 18:57:21.622337+00",
    "updated_at": "2025-01-13 18:57:21.622337+00",
    "uid": "HUBCAN"
  },
  {
    "id": 502,
    "name": "Canary Wharf",
    "lat": 51.50349,
    "long": -0.01825,
    "zone": 2,
    "created_at": "2025-01-13 18:57:21.622337+00",
    "updated_at": "2025-01-13 18:57:21.622337+00",
    "uid": "HUBCAW"
  },
  {
    "id": 503,
    "name": "Chalfont & Latimer",
    "lat": 51.66798,
    "long": -0.56069,
    "zone": 8,
    "created_at": "2025-01-13 18:57:21.622337+00",
    "updated_at": "2025-01-13 18:57:21.622337+00",
    "uid": "HUBCFO"
  },
  {
    "id": 504,
    "name": "Charing Cross",
    "lat": 51.50741,
    "long": -0.12728,
    "zone": 1,
    "created_at": "2025-01-13 18:57:21.622337+00",
    "updated_at": "2025-01-13 18:57:21.622337+00",
    "uid": "HUBCHX"
  },
  {
    "id": 505,
    "name": "Chorleywood",
    "lat": 51.65436,
    "long": -0.51846,
    "zone": 7,
    "created_at": "2025-01-13 18:57:21.622337+00",
    "updated_at": "2025-01-13 18:57:21.622337+00",
    "uid": "HUBCLW"
  },
  {
    "id": 506,
    "name": "Ealing Broadway",
    "lat": 51.51502,
    "long": -0.30146,
    "zone": 3,
    "created_at": "2025-01-13 18:57:21.622337+00",
    "updated_at": "2025-01-13 18:57:21.622337+00",
    "uid": "HUBEAL"
  },
  {
    "id": 507,
    "name": "Elephant & Castle",
    "lat": 51.49453,
    "long": -0.10061,
    "zone": "1|2",
    "created_at": "2025-01-13 18:57:21.622337+00",
    "updated_at": "2025-01-13 18:57:21.622337+00",
    "uid": "HUBEPH"
  },
  {
    "id": 508,
    "name": "Euston",
    "lat": 51.528,
    "long": -0.13379,
    "zone": 1,
    "created_at": "2025-01-13 18:57:21.622337+00",
    "updated_at": "2025-01-13 18:57:21.622337+00",
    "uid": "HUBEUS"
  },
  {
    "id": 509,
    "name": "Finsbury Park",
    "lat": 51.56416,
    "long": -0.10682,
    "zone": 2,
    "created_at": "2025-01-13 18:57:21.622337+00",
    "updated_at": "2025-01-13 18:57:21.622337+00",
    "uid": "HUBFPK"
  },
  {
    "id": 510,
    "name": "Greenford",
    "lat": 51.54242,
    "long": -0.34605,
    "zone": 4,
    "created_at": "2025-01-13 18:57:21.622337+00",
    "updated_at": "2025-01-13 18:57:21.622337+00",
    "uid": "HUBGFD"
  },
  {
    "id": 511,
    "name": "Gunnersbury",
    "lat": 51.4918,
    "long": -0.27527,
    "zone": 3,
    "created_at": "2025-01-13 18:57:21.622337+00",
    "updated_at": "2025-01-13 18:57:21.622337+00",
    "uid": "HUBGUN"
  },
  {
    "id": 512,
    "name": "Heathrow Terminals 2 & 3",
    "lat": 51.47123,
    "long": -0.45227,
    "zone": 6,
    "created_at": "2025-01-13 18:57:21.622337+00",
    "updated_at": "2025-01-13 18:57:21.622337+00",
    "uid": "HUBH13"
  },
  {
    "id": 513,
    "name": "Harlesden",
    "lat": 51.53631,
    "long": -0.25788,
    "zone": 3,
    "created_at": "2025-01-13 18:57:21.622337+00",
    "updated_at": "2025-01-13 18:57:21.622337+00",
    "uid": "HUBHDN"
  },
  {
    "id": 514,
    "name": "Highbury & Islington",
    "lat": 51.54635,
    "long": -0.10332,
    "zone": 2,
    "created_at": "2025-01-13 18:57:21.622337+00",
    "updated_at": "2025-01-13 18:57:21.622337+00",
    "uid": "HUBHHY"
  },
  {
    "id": 515,
    "name": "Hammersmith",
    "lat": 51.4923,
    "long": -0.22362,
    "zone": 2,
    "created_at": "2025-01-13 18:57:21.622337+00",
    "updated_at": "2025-01-13 18:57:21.622337+00",
    "uid": "HUBHMS"
  },
  {
    "id": 516,
    "name": "Harrow-on-the-Hill",
    "lat": 51.57925,
    "long": -0.33647,
    "zone": 5,
    "created_at": "2025-01-13 18:57:21.622337+00",
    "updated_at": "2025-01-13 18:57:21.622337+00",
    "uid": "HUBHOH"
  },
  {
    "id": 517,
    "name": "Harrow & Wealdstone",
    "lat": 51.59227,
    "long": -0.33522,
    "zone": 5,
    "created_at": "2025-01-13 18:57:21.622337+00",
    "updated_at": "2025-01-13 18:57:21.622337+00",
    "uid": "HUBHRW"
  },
  {
    "id": 518,
    "name": "Heathrow Terminal 4",
    "lat": 51.45852,
    "long": -0.44577,
    "zone": 6,
    "created_at": "2025-01-13 18:57:21.622337+00",
    "updated_at": "2025-01-13 18:57:21.622337+00",
    "uid": "HUBHX4"
  },
  {
    "id": 519,
    "name": "King's Cross St Pancras",
    "lat": 51.53066,
    "long": -0.12319,
    "zone": 1,
    "created_at": "2025-01-13 18:57:21.622337+00",
    "updated_at": "2025-01-13 18:57:21.622337+00",
    "uid": "HUBKGX"
  },
  {
    "id": 520,
    "name": "Kensal Green",
    "lat": 51.53054,
    "long": -0.22502,
    "zone": 2,
    "created_at": "2025-01-13 18:57:21.622337+00",
    "updated_at": "2025-01-13 18:57:21.622337+00",
    "uid": "HUBKNL"
  },
  {
    "id": 521,
    "name": "Kenton",
    "lat": 51.58175,
    "long": -0.31691,
    "zone": 4,
    "created_at": "2025-01-13 18:57:21.622337+00",
    "updated_at": "2025-01-13 18:57:21.622337+00",
    "uid": "HUBKNT"
  },
  {
    "id": 522,
    "name": "Kensington (Olympia)",
    "lat": 51.49762,
    "long": -0.21001,
    "zone": 2,
    "created_at": "2025-01-13 18:57:21.622337+00",
    "updated_at": "2025-01-13 18:57:21.622337+00",
    "uid": "HUBKPA"
  },
  {
    "id": 523,
    "name": "Kentish Town",
    "lat": 51.55031,
    "long": -0.14073,
    "zone": 2,
    "created_at": "2025-01-13 18:57:21.622337+00",
    "updated_at": "2025-01-13 18:57:21.622337+00",
    "uid": "HUBKTN"
  },
  {
    "id": 524,
    "name": "Kew Gardens",
    "lat": 51.47706,
    "long": -0.28524,
    "zone": "3|4",
    "created_at": "2025-01-13 18:57:21.622337+00",
    "updated_at": "2025-01-13 18:57:21.622337+00",
    "uid": "HUBKWG"
  },
  {
    "id": 525,
    "name": "London Bridge",
    "lat": 51.50572,
    "long": -0.08887,
    "zone": 1,
    "created_at": "2025-01-13 18:57:21.622337+00",
    "updated_at": "2025-01-13 18:57:21.622337+00",
    "uid": "HUBLBG"
  },
  {
    "id": 526,
    "name": "Liverpool Street",
    "lat": 51.51737,
    "long": -0.08318,
    "zone": 1,
    "created_at": "2025-01-13 18:57:21.622337+00",
    "updated_at": "2025-01-13 18:57:21.622337+00",
    "uid": "HUBLST"
  },
  {
    "id": 527,
    "name": "Marylebone",
    "lat": 51.52232,
    "long": -0.16321,
    "zone": 1,
    "created_at": "2025-01-13 18:57:21.622337+00",
    "updated_at": "2025-01-13 18:57:21.622337+00",
    "uid": "HUBMYB"
  },
  {
    "id": 528,
    "name": "North Wembley",
    "lat": 51.56255,
    "long": -0.304,
    "zone": 4,
    "created_at": "2025-01-13 18:57:21.622337+00",
    "updated_at": "2025-01-13 18:57:21.622337+00",
    "uid": "HUBNWB"
  },
  {
    "id": 529,
    "name": "Old Street",
    "lat": 51.52586,
    "long": -0.08777,
    "zone": 1,
    "created_at": "2025-01-13 18:57:21.622337+00",
    "updated_at": "2025-01-13 18:57:21.622337+00",
    "uid": "HUBOLD"
  },
  {
    "id": 530,
    "name": "Paddington",
    "lat": 51.51658,
    "long": -0.17569,
    "zone": 1,
    "created_at": "2025-01-13 18:57:21.622337+00",
    "updated_at": "2025-01-13 18:57:21.622337+00",
    "uid": "HUBPAD"
  },
  {
    "id": 531,
    "name": "Queen's Park",
    "lat": 51.53416,
    "long": -0.20457,
    "zone": 2,
    "created_at": "2025-01-13 18:57:21.622337+00",
    "updated_at": "2025-01-13 18:57:21.622337+00",
    "uid": "HUBQPW"
  },
  {
    "id": 532,
    "name": "Rickmansworth",
    "lat": 51.64021,
    "long": -0.4737,
    "zone": 7,
    "created_at": "2025-01-13 18:57:21.622337+00",
    "updated_at": "2025-01-13 18:57:21.622337+00",
    "uid": "HUBRIC"
  },
  {
    "id": 533,
    "name": "Richmond",
    "lat": 51.46324,
    "long": -0.30134,
    "zone": 4,
    "created_at": "2025-01-13 18:57:21.622337+00",
    "updated_at": "2025-01-13 18:57:21.622337+00",
    "uid": "HUBRMD"
  },
  {
    "id": 534,
    "name": "Stonebridge Park",
    "lat": 51.54396,
    "long": -0.27589,
    "zone": 3,
    "created_at": "2025-01-13 18:57:21.622337+00",
    "updated_at": "2025-01-13 18:57:21.622337+00",
    "uid": "HUBSBP"
  },
  {
    "id": 535,
    "name": "South Kenton",
    "lat": 51.57023,
    "long": -0.30843,
    "zone": 4,
    "created_at": "2025-01-13 18:57:21.622337+00",
    "updated_at": "2025-01-13 18:57:21.622337+00",
    "uid": "HUBSOK"
  },
  {
    "id": 536,
    "name": "Shepherd's Bush",
    "lat": 51.50437,
    "long": -0.21881,
    "zone": 2,
    "created_at": "2025-01-13 18:57:21.622337+00",
    "updated_at": "2025-01-13 18:57:21.622337+00",
    "uid": "HUBSPB"
  },
  {
    "id": 537,
    "name": "Stratford",
    "lat": 51.5418,
    "long": -0.00346,
    "zone": "2|3",
    "created_at": "2025-01-13 18:57:21.622337+00",
    "updated_at": "2025-01-13 18:57:21.622337+00",
    "uid": "HUBSRA"
  },
  {
    "id": 538,
    "name": "South Ruislip",
    "lat": 51.55685,
    "long": -0.39892,
    "zone": 5,
    "created_at": "2025-01-13 18:57:21.622337+00",
    "updated_at": "2025-01-13 18:57:21.622337+00",
    "uid": "HUBSRU"
  },
  {
    "id": 539,
    "name": "Seven Sisters",
    "lat": 51.58333,
    "long": -0.07258,
    "zone": 3,
    "created_at": "2025-01-13 18:57:21.622337+00",
    "updated_at": "2025-01-13 18:57:21.622337+00",
    "uid": "HUBSVS"
  },
  {
    "id": 540,
    "name": "Tottenham Court Road",
    "lat": 51.51642,
    "long": -0.13041,
    "zone": 1,
    "created_at": "2025-01-13 18:57:21.622337+00",
    "updated_at": "2025-01-13 18:57:21.622337+00",
    "uid": "HUBTCR"
  },
  {
    "id": 541,
    "name": "Tottenham Hale",
    "lat": 51.58811,
    "long": -0.06024,
    "zone": 3,
    "created_at": "2025-01-13 18:57:21.622337+00",
    "updated_at": "2025-01-13 18:57:21.622337+00",
    "uid": "HUBTOM"
  },
  {
    "id": 542,
    "name": "Upminster",
    "lat": 51.55906,
    "long": 0.25088,
    "zone": 6,
    "created_at": "2025-01-13 18:57:21.622337+00",
    "updated_at": "2025-01-13 18:57:21.622337+00",
    "uid": "HUBUPM"
  },
  {
    "id": 543,
    "name": "Victoria",
    "lat": 51.49636,
    "long": -0.1431,
    "zone": 1,
    "created_at": "2025-01-13 18:57:21.622337+00",
    "updated_at": "2025-01-13 18:57:21.622337+00",
    "uid": "940GZZLUVIC"
  },
  {
    "id": 544,
    "name": "Vauxhall",
    "lat": 51.48574,
    "long": -0.1242,
    "zone": "1|2",
    "created_at": "2025-01-13 18:57:21.622337+00",
    "updated_at": "2025-01-13 18:57:21.622337+00",
    "uid": "HUBVXH"
  },
  {
    "id": 545,
    "name": "Waterloo",
    "lat": 51.5033,
    "long": -0.11478,
    "zone": 1,
    "created_at": "2025-01-13 18:57:21.622337+00",
    "updated_at": "2025-01-13 18:57:21.622337+00",
    "uid": "HUBWAT"
  },
  {
    "id": 546,
    "name": "West Brompton",
    "lat": 51.48727,
    "long": -0.1956,
    "zone": 2,
    "created_at": "2025-01-13 18:57:21.622337+00",
    "updated_at": "2025-01-13 18:57:21.622337+00",
    "uid": "HUBWBP"
  },
  {
    "id": 547,
    "name": "Walthamstow Central",
    "lat": 51.58296,
    "long": -0.01989,
    "zone": 3,
    "created_at": "2025-01-13 18:57:21.622337+00",
    "updated_at": "2025-01-13 18:57:21.622337+00",
    "uid": "HUBWHC"
  },
  {
    "id": 548,
    "name": "Willesden Junction",
    "lat": 51.53226,
    "long": -0.24428,
    "zone": "2|3",
    "created_at": "2025-01-13 18:57:21.622337+00",
    "updated_at": "2025-01-13 18:57:21.622337+00",
    "uid": "HUBWIJ"
  },
  {
    "id": 549,
    "name": "Wimbledon",
    "lat": 51.42136,
    "long": -0.20652,
    "zone": "3|Trams fare zone",
    "created_at": "2025-01-13 18:57:21.622337+00",
    "updated_at": "2025-01-13 18:57:21.622337+00",
    "uid": "HUBWIM"
  },
  {
    "id": 550,
    "name": "Wembley Central",
    "lat": 51.5523,
    "long": -0.29685,
    "zone": 4,
    "created_at": "2025-01-13 18:57:21.622337+00",
    "updated_at": "2025-01-13 18:57:21.622337+00",
    "uid": "HUBWMB"
  },
  {
    "id": 551,
    "name": "West Ruislip",
    "lat": 51.56969,
    "long": -0.43789,
    "zone": 6,
    "created_at": "2025-01-13 18:57:21.622337+00",
    "updated_at": "2025-01-13 18:57:21.622337+00",
    "uid": "HUBWRU"
  },
  {
    "id": 552,
    "name": "Westminster",
    "lat": 51.50132,
    "long": -0.12486,
    "zone": 1,
    "created_at": "2025-01-13 18:57:21.622337+00",
    "updated_at": "2025-01-13 18:57:21.622337+00",
    "uid": "HUBWSM"
  },
  {
    "id": 553,
    "name": "Canada Water",
    "lat": 51.49794,
    "long": -0.04972,
    "zone": 2,
    "created_at": "2025-01-13 18:57:21.622337+00",
    "updated_at": "2025-01-13 18:57:21.622337+00",
    "uid": "HUBZCW"
  },
  {
    "id": 554,
    "name": "Moorgate",
    "lat": 51.51817,
    "long": -0.08832,
    "zone": 1,
    "created_at": "2025-01-13 18:57:21.622337+00",
    "updated_at": "2025-01-13 18:57:21.622337+00",
    "uid": "HUBZMG"
  }
]